{
  "results": {
    "docs": [
      {
        "shopid": "M0shop1",
        "shopname": "XYZ",
        "addressline1": "No.23, addressline1",
        "addressline2": "location name, addressline2",
        "addressline3": "area name, addressline3",
        "city": "Chennai",
        "pincode": 600028,
        "lat": 13.0166828,
        "long": 80.26000279999994,
        "recommandations":"52",
        "workinghour":"09:00 - 22:00",
        "offerAvilable": true,
        "offer": 10
      },
      {
        "shopid": "M0shop2",
        "shopname": "ABC",
        "addressline1": "No.23, addressline1",
        "addressline2": "location name, addressline2",
        "addressline3": "area name, addressline3",
        "city": "Chennai",
        "pincode": 600028,
        "lat": 14.0166828,
        "long": 90.26000279999994,
        "recommandations":"10",
        "workinghour":"09:00 - 22:00",
        "offerAvilable": false,
        "offer": 0
      },
      {
        "shopid": "M0shop3",
        "shopname": "DEF",
        "addressline1": "No.23, addressline1",
        "addressline2": "location name, addressline2",
        "addressline3": "area name, addressline3",
        "city": "Chennai",
        "pincode": 600028,
        "lat": 12.0166828,
        "long": 82.26000279999994,
        "recommandations":"50",
        "workinghour":"24Hrs",
        "offerAvilable": true,
        "offer": 50
      },
      {
        "shopid": "M0shop4",
        "shopname": "GHI",
        "addressline1": "No.23, addressline1",
        "addressline2": "location name, addressline2",
        "addressline3": "Potheri, addressline3",
        "city": "Chennai",
        "pincode": 600028,
        "lat": 13.1166828,
        "long": 80.38000279999994,
        "recommandations":"89",
        "workinghour":"09:00 - 22:00",
        "offerAvilable": false,
        "offer": 0
      },
      {
        "shopid": "M0shop5",
        "shopname": "JKL",
        "addressline1": "No.23, addressline1",
        "addressline2": "location name, addressline2",
        "addressline3": "Potheri, addressline3",
        "city": "Chennai",
        "pincode": 600028,
        "lat": 13.0966828,
        "long": 80.28000899999994,
        "recommandations":"52k",
        "workinghour":"09:00 - 22:00",
        "offerAvilable": false,
        "offer": 0
      },
      {
        "shopid": "M0shop6",
        "shopname": "MNO",
        "addressline1": "No.23, addressline1",
        "addressline2": "location name, addressline2",
        "addressline3": "Potheri, addressline3",
        "city": "Chennai",
        "pincode": 600028,
        "lat": 14.266828,
        "long": 79.26000279999994,
        "recommandations":"10k",
        "workinghour":"24Hrs",
        "offerAvilable": false,
        "offer": 0
      },
      {
        "shopid": "M0shop7",
        "shopname": "PQR",
        "addressline1": "No.23, addressline1",
        "addressline2": "location name, addressline2",
        "addressline3": "Potheri, addressline3",
        "city": "Chennai",
        "pincode": 600028,
        "lat": 12.01366828,
        "long": 81.26000279999994,
        "recommandations":"72",
        "workinghour":"24Hrs",
        "offerAvilable": false,
        "offer": 0
      },
      {
        "shopid": "M0shop8",
        "shopname": "STU",
        "addressline1": "No.23, addressline1",
        "addressline2": "location name, addressline2",
        "addressline3": "Pallavarm, addressline3",
        "city": "Chennai",
        "pincode": 600028,
        "lat": 11.266828,
        "long": 79.26000279999994,
        "recommandations":"1k",
        "workinghour":"24Hrs",
        "offerAvilable": false,
        "offer": 0
      },
      {
        "shopid": "M0shop9",
        "shopname": "VWX",
        "addressline1": "No.23, addressline1",
        "addressline2": "location name, addressline2",
        "addressline3": "Pallavarm pakkathula, addressline3",
        "city": "Chennai",
        "pincode": 600028,
        "lat": 14.266828,
        "long": 79.26000279999994,
        "recommandations":"100",
        "workinghour":"24Hrs",
        "offerAvilable": false,
        "offer": 0
      },
      {
        "shopid": "M0shop10",
        "shopname": "YZA",
        "addressline1": "No.23, addressline1",
        "addressline2": "location name, addressline2",
        "addressline3": "Pallavarm, addressline3",
        "city": "Chennai",
        "pincode": 600028,
        "lat": 13.266828,
        "long": 80.79999994,
        "recommandations":"999",
        "workinghour":"24Hrs",
        "offerAvilable": true,
        "offer": 15
      }
    ],
    "total_records": 14
  },
  "status_code": 200
}